[{
		"id": 1,
		"name": "Luzhniki Stadium",
		"city": "Moscow",
		"lat": 55.715765,
		"lng": 37.5515217
	},
	{
		"id": 2,
		"name": "Otkrytiye Arena",
		"city": "Moscow",
		"lat": 55.817765,
		"lng": 37.440363
	},
	{
		"id": 3,
		"name": "Krestovsky Stadium",
		"city": "Saint Petersburg",
		"lat": 59.972740,
		"lng": 30.221408
	},
	{
		"id": 4,
		"name": "Kaliningrad Stadium",
		"city": "Kaliningrad",
		"lat": 54.698157,
		"lng": 20.533859
	},
	{
		"id": 5,
		"name": "Kazan Arena",
		"city": "Kazan",
		"lat": 55.820983,
		"lng": 49.160966
	},
	{
		"id": 6,
		"name": "Nizhny Novgorod Stadium",
		"city": "Nizhny Novgorod",
		"lat": 56.337287,
		"lng": 43.963251
	},
	{
		"id": 7,
		"name": "Cosmos Arena",
		"city": "Samara",
		"lat": 53.278146,
		"lng": 50.238854
	},
	{
		"id": 8,
		"name": "Volgograd Arena",
		"city": "Volgograd",
		"lat": 48.734195,
		"lng": 44.548345
	},
	{
		"id": 9,
		"name": "Mordovia Arena",
		"city": "Saransk",
		"lat": 54.181795,
		"lng": 45.203851
	},
	{
		"id": 10,
		"name": "Rostov Arena",
		"city": "Rostov-on-Don",
		"lat": 47.209581,
		"lng": 39.738424
	},
	{
		"id": 11,
		"name": "Fisht Olympic Stadium",
		"city": "Sochi",
		"lat": 43.402011,
		"lng": 39.955709
	},
	{
		"id": 12,
		"name": "Central Stadium",
		"city": "Yekaterinburg",
		"lat": 56.832490,
		"lng": 60.573585
	}
]